City ID,City,Cloudiness,Country,Date,Humidity,Lat,Lng,Max Temp,Wind Speed
0,Staroutkinsk,100,RU,1610292686,89,57.2302,59.3348,-6.47,15.17
1,Tasiilaq,90,GL,1610292686,53,65.6145,-37.6368,19.4,1.14
2,Airai,98,TL,1610292686,100,-8.9266,125.4092,63.19,0.47
3,Iqaluit,75,CA,1610292560,85,63.7506,-68.5145,6.8,5.75
4,Rikitea,100,PF,1610292686,79,-23.1203,-134.9692,77.59,15.93
5,Saint Paul Harbor,90,US,1610292687,87,57.79,-152.4072,41.0,21.85
6,Hilo,20,US,1610292687,77,19.7297,-155.09,64.4,8.05
7,East London,90,ZA,1610292687,100,-33.0153,27.9116,66.2,8.05
8,Cockburn Town,100,TC,1610292687,80,21.4612,-71.1419,77.14,13.87
9,Inhambane,40,MZ,1610292687,70,-23.865,35.3833,86.0,6.91
10,Lompoc,1,US,1610292687,87,34.6391,-120.4579,48.99,4.61
11,Albany,85,US,1610292687,65,42.6001,-73.9662,25.0,6.06
12,Qaqortoq,75,GL,1610292688,38,60.7167,-46.0333,41.0,21.85
13,Mayo,1,US,1610292688,56,38.8876,-76.5119,41.0,10.36
14,Upernavik,7,GL,1610292688,86,72.7868,-56.1549,9.61,10.31
15,Punta Arenas,40,CL,1610292688,58,-53.15,-70.9167,51.8,18.41
16,Asmara,58,ER,1610292688,87,15.3333,38.9333,54.23,5.35
17,Faanui,74,PF,1610292688,72,-16.4833,-151.75,80.6,12.01
18,Naze,59,JP,1610292688,77,28.3667,129.4833,50.54,9.01
19,Bluff,90,NZ,1610292688,78,-46.6,168.3333,53.01,11.99
20,Barrow,90,US,1610292688,85,71.2906,-156.7887,3.2,7.67
21,Qaanaaq,0,GL,1610292689,74,77.484,-69.3632,-1.39,6.87
22,Puerto Ayacucho,45,VE,1610292689,65,5.6639,-67.6236,86.13,2.48
23,Ankang,86,CN,1610292689,59,32.68,109.0172,30.99,8.99
24,Hithadhoo,97,MV,1610292636,74,-0.6,73.0833,81.41,10.45
25,Port Alfred,100,ZA,1610292689,80,-33.5906,26.891,69.01,1.99
26,Yellowknife,1,CA,1610292689,84,62.456,-114.3525,-2.2,3.44
27,Hermanus,52,ZA,1610292690,60,-34.4187,19.2345,71.01,8.99
28,San Quintín,0,MX,1610292690,57,30.4833,-115.95,58.87,0.89
29,Sterling,1,US,1610292690,45,39.0062,-77.4286,41.0,17.27
30,Palmer,40,US,1610292491,55,42.1584,-72.3287,34.0,13.8
31,Vaini,20,TO,1610292690,94,-21.2,-175.2,77.0,5.75
32,George Town,20,MY,1610292510,73,5.4112,100.3354,82.0,0.94
33,Caravelas,18,BR,1610292690,59,-17.7125,-39.2481,86.0,11.83
34,Mahébourg,75,MU,1610292691,94,-20.4081,57.7,78.8,10.36
35,Ushuaia,75,AR,1610292691,87,-54.8,-68.3,46.4,13.8
36,Castro,37,BR,1610292488,73,-24.7911,-50.0119,77.92,0.94
37,Samarai,100,PG,1610292691,79,-10.6167,150.6667,82.45,7.85
38,Port Hedland,65,AU,1610292691,89,-20.3167,118.5667,86.0,8.05
39,Kavaratti,64,IN,1610292691,72,10.5669,72.642,82.92,5.14
40,Saskylakh,99,RU,1610292691,83,71.9167,114.0833,-19.79,10.33
41,Bambous Virieux,75,MU,1610292691,94,-20.3428,57.7575,81.0,10.36
42,Santiago del Estero,3,AR,1610292466,61,-27.7951,-64.2615,91.0,4.0
43,Alta Floresta,40,BR,1610292692,70,-9.8756,-56.0861,86.0,4.61
44,Pahrump,20,US,1610292404,53,36.2083,-115.9839,30.0,1.01
45,Puerto Ayora,0,EC,1610292692,57,-0.7393,-90.3518,82.4,13.8
46,Nikolskoye,0,RU,1610292692,85,59.7035,30.7861,9.0,4.47
47,Dondo,20,MZ,1610292692,74,-19.6094,34.7431,87.8,13.8
48,Jamestown,90,US,1610292693,93,42.097,-79.2353,30.0,6.91
49,Forbes,0,AU,1610292693,51,-33.3833,148.0167,70.0,1.99
50,Northam,36,GB,1610292693,87,51.0333,-4.2167,44.01,5.01
51,Bethel,1,US,1610292693,59,41.3712,-73.414,30.99,11.5
52,Horki,89,BY,1610292693,97,54.2861,30.9842,12.38,4.74
53,Hualmay,96,PE,1610292693,70,-11.0964,-77.6139,75.16,11.01
54,Arraial do Cabo,75,BR,1610292694,74,-22.9661,-42.0278,86.0,16.11
55,Busselton,19,AU,1610292694,77,-33.65,115.3333,63.0,1.01
56,Lavrentiya,0,RU,1610292694,84,65.5833,-171.0,-14.94,10.36
57,Sinnamary,13,GF,1610292694,76,5.3833,-52.95,82.09,13.15
58,Manjakandriana,20,MG,1610292694,53,-18.9167,47.8,77.0,11.5
59,Cayenne,75,GF,1610292694,83,4.9333,-52.3333,82.4,13.8
60,Arlington,1,US,1610292672,70,32.7357,-97.1081,39.2,6.91
61,Tyler,90,US,1610292694,75,32.3513,-95.3011,37.4,5.75
62,Ţahţā,0,EG,1610292695,40,26.7693,31.5021,73.4,8.05
63,Kautokeino,100,NO,1610292695,91,69.0125,23.0412,-2.16,14.2
64,Grants,90,US,1610292695,93,35.1473,-107.8514,23.0,3.44
65,Dikson,100,RU,1610292695,98,73.5069,80.5464,19.0,18.37
66,Honiara,98,SB,1610292695,76,-9.4333,159.95,79.12,4.72
67,Hobart,90,AU,1610292695,77,-42.8794,147.3294,62.6,4.61
68,Atuona,48,PF,1610292695,81,-9.8,-139.0333,77.41,18.3
69,Moosomin,98,CA,1610292695,96,50.1333,-101.6677,22.86,12.08
70,Port Hawkesbury,90,CA,1610292696,93,45.6169,-61.3485,34.0,13.8
71,Avera,1,US,1610292696,65,33.194,-82.5271,41.0,8.05
72,Cape Town,20,ZA,1610292650,49,-33.9258,18.4232,73.99,28.77
73,Vigrestad,75,NO,1610292696,93,58.5667,5.7,33.8,8.05
74,Tiksi,98,RU,1610292696,88,71.6872,128.8694,-14.64,8.16
75,Victor Harbor,52,AU,1610292696,39,-35.5667,138.6167,82.99,6.4
76,Iquique,0,CL,1610292696,53,-20.2208,-70.1431,75.2,12.66
77,Avarua,75,CK,1610292696,88,-21.2078,-159.775,77.0,6.91
78,Aklavik,75,CA,1610292697,77,68.2191,-135.0107,-9.4,2.3
79,Kaitangata,75,NZ,1610292697,68,-46.2817,169.8464,52.0,7.0
80,Port Augusta,3,AU,1610292697,49,-32.5,137.7667,75.99,3.44
81,Lorengau,100,PG,1610292697,71,-2.0226,147.2712,81.3,4.0
82,Port Lincoln,100,AU,1610292697,38,-34.7333,135.8667,77.45,12.15
83,Clyde River,75,CA,1610292697,92,70.4692,-68.5914,3.2,17.27
84,Majene,100,ID,1610292697,85,-3.5403,118.9707,79.29,6.85
85,Galesong,40,ID,1610292697,100,-5.3166,119.3661,77.0,3.44
86,Saint-Joseph,40,RE,1610292698,83,-21.3667,55.6167,80.6,21.85
87,Auki,100,SB,1610292698,84,-8.7676,160.7034,79.21,4.74
88,Chokurdakh,100,RU,1610292698,86,70.6333,147.9167,-27.51,6.91
89,Skjervøy,0,NO,1610292698,100,70.0311,20.9714,26.6,19.57
90,Nantucket,90,US,1610292402,70,41.2835,-70.0995,37.4,16.11
91,Ola,100,RU,1610292698,84,59.5833,151.2833,0.16,9.48
92,New Norfolk,97,AU,1610292698,76,-42.7826,147.0587,61.0,1.95
93,Ancud,90,CL,1610292698,81,-41.8697,-73.8203,55.99,18.41
94,Pailón,75,BO,1610292698,70,-17.65,-62.75,87.8,17.27
95,Tuatapere,74,NZ,1610292699,78,-46.1333,167.6833,53.01,11.99
96,Kochi,75,IN,1610292615,83,9.9399,76.2602,80.6,3.44
97,Mataura,80,NZ,1610292699,78,-46.1927,168.8643,53.01,11.99
98,Brae,40,GB,1610292699,65,60.3964,-1.353,39.2,20.71
99,Longyearbyen,75,SJ,1610292699,69,78.2186,15.6401,30.2,14.97
100,Port Blair,37,IN,1610292699,80,11.6667,92.75,79.75,10.85
101,Saint-Philippe,40,RE,1610292699,83,-21.3585,55.7679,80.6,21.85
102,Alofi,66,NU,1610292699,94,-19.0595,-169.9187,71.6,1.14
103,Bathsheba,20,BB,1610292700,65,13.2167,-59.5167,84.2,25.32
104,Comodoro Rivadavia,20,AR,1610292601,22,-45.8667,-67.5,66.2,26.46
105,Pendleton,90,US,1610292700,100,45.6721,-118.7886,34.0,3.44
106,Leningradskiy,88,RU,1610292700,84,69.3833,178.4167,-21.26,7.05
107,Kapaa,20,US,1610292700,100,22.0752,-159.319,66.2,9.22
108,Nome,40,US,1610292700,72,64.5011,-165.4064,8.6,9.64
109,Saint George,1,US,1610292664,64,37.1041,-113.5841,28.4,6.91
110,Bengkulu,100,ID,1610292502,83,-3.8004,102.2655,77.88,3.67
111,Bairiki Village,20,KI,1610292701,83,1.3292,172.9752,78.8,12.66
112,Sampang,20,ID,1610292701,94,-7.1872,113.2394,77.0,5.75
113,Batemans Bay,1,AU,1610292701,96,-35.7167,150.1833,62.01,2.82
114,Buala,83,SB,1610292701,78,-8.145,159.5921,81.7,5.01
115,Praia,75,CV,1610292701,57,14.9215,-23.5087,75.2,28.77
116,Srednekolymsk,89,RU,1610292701,84,67.45,153.6833,-30.73,4.5
117,Necochea,25,AR,1610292701,54,-38.5473,-58.7368,82.0,14.85
118,Columbus,40,US,1610292533,93,39.9612,-82.9988,34.0,0.6
119,Guerrero Negro,0,MX,1610292618,41,27.9769,-114.0611,61.61,2.86
120,Port Victoria,100,KE,1610292702,77,0.0939,33.9756,71.11,7.14
121,Panguna,99,PG,1610292702,99,-6.3164,155.4848,69.35,1.43
122,Tilichiki,100,RU,1610292702,93,60.4667,166.1,-7.56,12.28
123,Mlonggo,100,ID,1610292702,85,-6.5333,110.7,77.27,3.31
124,Astoria,90,US,1610292702,100,46.1879,-123.8313,45.0,8.05
125,Norman Wells,75,CA,1610292702,85,65.282,-126.8329,12.2,17.27
126,Maicao,97,CO,1610292703,65,11.3832,-72.2432,82.96,18.03
127,Sittwe,4,MM,1610292703,67,20.15,92.9,74.98,9.73
128,Lebu,65,CL,1610292703,84,-37.6167,-73.65,60.15,12.17
129,Butaritari,56,KI,1610292703,82,3.0707,172.7902,80.87,15.99
130,Tura,36,IN,1610292703,61,25.5198,90.2201,63.88,1.83
131,Ivanivka,29,UA,1610292703,91,46.7208,34.553,32.23,5.61
132,Bereda,45,ES,1610292703,70,43.2686,-7.5406,43.0,11.01
133,Saldanha,0,ZA,1610292704,36,-33.0117,17.9442,78.8,20.71
134,Cap Malheureux,10,MU,1610292704,81,-19.9842,57.6142,81.0,5.99
135,Oliveira dos Brejinhos,23,BR,1610292704,36,-12.3169,-42.8961,93.38,3.29
136,Goderich,100,CA,1610292704,80,43.7501,-81.7165,30.2,6.91
137,Griffith,90,US,1610292704,93,41.5284,-87.4237,28.4,6.91
138,Tual,100,ID,1610292704,75,-5.6667,132.75,83.64,6.08
139,San Felipe,55,VE,1610292704,61,10.3399,-68.7425,85.62,2.06
140,Plátanos,90,GR,1610292704,56,37.6667,21.6167,71.6,13.8
141,Richards Bay,98,ZA,1610292705,88,-28.783,32.0377,76.73,8.84
142,Dakar,0,SN,1610292705,60,14.6937,-17.4441,71.6,21.85
143,São João da Barra,40,BR,1610292705,62,-21.6403,-41.0511,87.8,6.91
144,Broome,90,US,1610292705,80,42.2506,-75.833,28.99,6.91
145,Ribeira Grande,75,PT,1610292705,100,38.5167,-28.7,60.8,13.8
146,West Lorne,100,CA,1610292705,67,42.6001,-81.5998,33.01,3.83
147,Zhigansk,100,RU,1610292705,84,66.7697,123.3711,-30.51,3.02
148,Camaná,82,PE,1610292705,65,-16.6228,-72.7111,74.79,10.98
149,Bagua Grande,42,PE,1610292706,59,-5.7561,-78.4411,83.03,4.47
150,Lata,99,PT,1610292706,58,40.1629,-8.3327,53.01,1.99
151,Tautira,75,PF,1610292706,61,-17.7333,-149.15,78.8,6.91
152,Pevek,100,RU,1610292706,87,69.7008,170.3133,-24.97,4.0
153,Igarka,55,RU,1610292706,81,67.4667,86.5833,-20.87,7.18
154,Cabo San Lucas,1,MX,1610292706,62,22.8909,-109.9124,60.8,9.22
155,Port Moresby,75,PG,1610292706,94,-9.4431,147.1797,77.0,4.61
156,Sabang,62,ID,1610292706,79,5.8933,95.3214,81.14,10.76
157,São Filipe,100,CV,1610292707,69,14.8961,-24.4956,72.41,19.57
158,Cassilândia,100,BR,1610292707,42,-19.1133,-51.7342,92.93,3.65
159,Christchurch,34,NZ,1610292707,77,-43.5333,172.6333,59.0,12.66
160,Thompson,20,CA,1610292707,92,55.7435,-97.8558,6.8,4.61
161,Yerbogachën,100,RU,1610292707,89,61.2767,108.0108,-14.37,4.59
162,Piaçabuçu,100,BR,1610292707,59,-10.4056,-36.4344,85.71,14.32
163,Luanda,20,AO,1610292707,61,-8.8368,13.2343,84.2,9.22
164,Ndélé,18,CF,1610292707,12,8.4109,20.6473,89.87,4.32
165,Port Hardy,75,CA,1610292553,87,50.6996,-127.4199,44.6,24.16
166,Tucuruí,62,BR,1610292708,56,-3.7661,-49.6725,89.04,4.12
167,Oistins,20,BB,1610292708,65,13.0667,-59.5333,84.2,25.32
168,Cherskiy,99,RU,1610292708,85,68.75,161.3,-30.6,3.04
169,Bredasdorp,97,ZA,1610292708,56,-34.5322,20.0403,68.0,11.5
170,Pisco,40,PE,1610292708,78,-13.7,-76.2167,73.4,9.22
171,Forestville,1,US,1610292708,42,38.8451,-76.875,42.8,11.5
172,Kaeo,69,NZ,1610292708,95,-35.1,173.7833,59.0,3.0
173,Mayya,90,RU,1610292708,66,61.7333,130.2811,-47.2,1.59
174,Zhangjiakou,100,CN,1610292709,79,40.81,114.8794,10.49,3.76
175,Bara,98,NG,1610292709,21,10.3744,10.7288,95.0,8.05
176,Boguchany,100,RU,1610292709,89,58.3814,97.4531,-8.34,0.47
177,Sumenep,100,ID,1610292709,83,-7.0167,113.8667,79.23,4.97
178,Bahía Honda,57,CU,1610292709,64,22.9036,-83.1592,68.14,11.59
179,Hong Kong,100,HK,1610292461,41,22.2855,114.1577,55.0,1.01
180,Barra do Garças,75,BR,1610292709,70,-15.89,-52.2567,84.2,4.61
181,Voljevac,90,BA,1610292709,100,43.8786,17.6592,42.01,3.44
182,Lewiston,1,US,1610292687,59,44.1003,-70.2148,30.99,6.91
183,Pacific Grove,1,US,1610292710,75,36.6177,-121.9166,42.8,5.75
184,Gacko,90,BA,1610292710,75,43.1672,18.5353,42.8,3.44
185,Nelson Bay,0,AU,1610292710,94,-32.7167,152.15,64.4,7.52
186,Kloulklubed,90,PW,1610292710,89,7.0419,134.2556,78.8,5.75
187,Yulara,0,AU,1610292710,18,-25.2406,130.9889,80.6,6.91
188,Melekhovo,98,RU,1610292710,96,56.2773,41.2935,11.37,5.95
189,Kruisfontein,99,ZA,1610292710,73,-34.0033,24.7314,68.0,5.99
190,Kidal,0,ML,1610292710,9,18.4411,1.4078,93.74,8.05
191,Severo-Kuril'sk,88,RU,1610292711,88,50.6789,156.125,19.83,22.86
192,Narsaq,75,GL,1610292711,38,60.9167,-46.05,41.0,21.85
193,Touros,40,BR,1610292711,55,-5.1989,-35.4608,87.8,16.11
194,Antofagasta,20,CL,1610292711,64,-23.65,-70.4,75.0,11.5
195,Akle,40,PH,1610292711,78,15.0482,121.0733,77.0,4.61
196,Half Moon Bay,75,US,1610292711,81,37.4636,-122.4286,48.2,3.44
197,Antigonish,100,CA,1610292711,93,45.6169,-61.9986,33.01,5.01
198,Concepción de Guasistagua,20,HN,1610292712,77,14.6,-87.65,62.6,6.91
199,Meaford,100,CA,1610292712,88,44.6001,-80.583,32.0,1.99
200,Piripiri,37,BR,1610292712,37,-4.2733,-41.7769,94.28,3.33
201,Khatanga,100,RU,1610292712,85,71.9667,102.5,-19.55,16.51
202,Vardø,75,NO,1610292712,86,70.3705,31.1107,15.8,10.36
203,Tobol,100,KZ,1610292712,98,52.6844,62.5794,22.28,11.74
204,Apac,99,UG,1610292712,37,1.9756,32.5386,80.37,2.24
205,Sukhumi,100,GE,1610292712,83,43.0033,41.0153,52.29,7.7
206,Aksu,0,CN,1610292713,79,41.1231,80.2644,13.48,0.92
207,Nanortalik,100,GL,1610292713,91,60.1432,-45.2371,32.83,5.7
208,Maceió,40,BR,1610292713,58,-9.6658,-35.7353,87.8,16.11
209,Asău,0,RO,1610292713,86,46.4333,26.4,34.0,2.3
210,Ust-Maya,95,RU,1610292713,80,60.4167,134.5333,-40.85,1.21
211,Peace River,90,CA,1610292713,79,56.2501,-117.286,19.0,6.91
212,Lucera,75,IT,1610292713,100,41.5082,15.3351,44.6,8.05
213,Janakpur Dham,98,NP,1610292713,58,26.7183,85.9065,63.97,3.22
214,Xiongzhou,99,CN,1610292713,57,25.1167,114.3,42.57,4.18
215,Gimli,23,CA,1610292714,93,50.6336,-96.9907,17.6,6.91
216,Ejido,35,VE,1610292714,48,8.5514,-71.2375,77.88,4.25
217,Talcahuano,75,CL,1610292714,68,-36.7167,-73.1167,64.4,11.5
218,Brigantine,1,US,1610292714,52,39.4101,-74.3646,42.01,13.8
219,Mareeba,90,AU,1610292714,89,-17.0,145.4333,78.8,4.61
220,Port Macquarie,45,AU,1610292714,94,-31.4333,152.9167,64.0,1.99
221,Hervey Bay,36,AU,1610292714,91,-25.2986,152.8535,71.01,4.0
222,Laas,0,IT,1610292715,42,46.6166,10.7002,28.0,8.05
223,Mar del Plata,0,AR,1610292592,37,-38.0023,-57.5575,86.0,6.91
224,Sault Ste. Marie,90,CA,1610292608,93,46.5168,-84.3333,32.0,4.61
225,Caucayá,66,CO,1610292715,62,-0.1934,-74.7819,84.31,3.04
226,Wenatchee,90,US,1610292715,93,47.4235,-120.3103,35.01,3.44
227,Balestrand,99,NO,1610292715,96,61.2076,6.5334,28.99,0.09
228,Iskateley,0,RU,1610292715,89,67.6803,53.1512,-8.9,5.37
229,Dongsheng,29,CN,1610292715,84,39.8161,109.9776,5.31,22.7
230,Pierre,9,US,1610292693,100,44.3683,-100.351,33.01,5.99
231,Ende,100,ID,1610292716,79,-8.8432,121.6623,80.64,1.81
232,Wilmington,1,US,1610292466,53,34.2257,-77.9447,45.0,8.05
233,Sangar,100,RU,1610292716,83,63.9242,127.4739,-33.48,3.69
234,Carnarvon,0,AU,1610292716,83,-24.8667,113.6333,78.8,21.85
235,Platteville,90,US,1610292677,100,42.7342,-90.4785,23.0,6.91
236,Oriximiná,76,BR,1610292716,48,-1.7656,-55.8661,91.06,3.74
237,Krasnosel'kup,11,RU,1610292716,86,65.7,82.4667,-24.12,8.52
238,Araouane,73,ML,1610292717,21,18.9048,-3.5265,83.26,14.56
239,Henties Bay,2,NA,1610292717,76,-22.116,14.2845,67.8,9.48
240,Sim,100,RU,1610292717,95,54.993,57.6982,14.2,4.27
241,Kailua,75,US,1610292717,83,21.4022,-157.7394,71.6,8.25
242,Ilulissat,20,GL,1610292717,53,69.2167,-51.1,15.8,4.61
243,San Jose,40,US,1610292668,81,37.3394,-121.895,44.01,1.01
244,Torbay,90,CA,1610292717,100,47.6666,-52.7314,32.0,17.27
245,Jacqueville,20,CI,1610292718,79,5.2052,-4.4146,86.0,14.97
246,Salinópolis,59,BR,1610292718,82,-0.6136,-47.3561,81.79,11.16
247,Seddon,98,AU,1610292718,83,-37.8068,144.8916,70.0,4.25
248,Ust-Nera,33,RU,1610292718,71,64.5667,143.2,-38.04,2.71
249,Province of Mantua,62,IT,1610292718,62,45.1667,10.7833,41.0,5.99
250,Belaya Gora,84,RU,1610292718,85,68.5333,146.4167,-32.53,0.63
251,Chernyshevskiy,92,RU,1610292718,86,63.0128,112.4714,-30.1,2.66
252,Colac,62,AU,1610292718,81,-38.3333,143.5833,71.01,4.54
253,Byron Bay,16,AU,1610292719,68,-28.65,153.6167,71.6,9.22
254,Rach Gia,75,VN,1610292641,100,10.0167,105.0833,73.4,1.14
255,Tshikapa,83,CD,1610292719,85,-6.4167,20.8,77.58,3.56
256,Uruçuí,88,BR,1610292719,60,-7.2294,-44.5561,87.82,3.58
257,Philadelphia,20,US,1610292552,52,39.9523,-75.1638,39.2,12.66
258,Vallentuna,90,SE,1610292719,100,59.5344,18.0776,35.01,8.05
259,Rawson,100,AR,1610292719,29,-43.3002,-65.1023,71.44,23.49
260,Charcas,31,MX,1610292719,58,23.1333,-101.1167,52.2,13.87
261,La Ronge,100,CA,1610292719,85,55.1001,-105.2842,14.0,3.44
262,Selma,90,US,1610292720,100,36.5708,-119.6121,37.4,0.27
263,Vidim,100,RU,1610292720,93,56.4088,103.1106,3.9,6.33
264,Taltal,27,CL,1610292720,66,-25.4,-70.4833,68.88,7.7
265,Gari,100,RU,1610292720,89,59.4307,62.3497,-15.2,7.27
266,Faya,20,SA,1610292720,76,18.3851,42.4509,57.2,12.66
267,Bosaso,83,SO,1610292697,64,11.2842,49.1816,74.62,14.47
268,Popondetta,100,PG,1610292720,92,-8.7537,148.2534,75.07,2.62
269,Bonavista,100,CA,1610292720,100,48.6499,-53.1147,32.0,8.05
270,Santa Rosa,40,PH,1610292721,73,14.3122,121.1114,77.0,4.61
271,Houma,90,US,1610292721,81,29.5958,-90.7195,39.99,11.5
272,Villa Luvianos,28,MX,1610292721,51,18.9167,-100.4,69.98,2.08
273,Dingle,100,PH,1610292721,93,10.9995,122.6711,73.9,11.5
274,Ponta do Sol,52,PT,1610292721,64,32.6667,-17.1,59.0,1.99
275,Pangnirtung,99,CA,1610292721,84,66.1451,-65.7125,6.37,1.74
276,Portlethen,100,GB,1610292721,87,57.0547,-2.1307,39.2,5.75
277,Ankara,75,TR,1610292722,82,39.9199,32.8543,54.0,1.14
278,Caraquet,28,CA,1610292722,59,47.7941,-64.9386,26.6,11.5
279,Bowmore,1,US,1610292722,56,34.9421,-79.3031,44.01,5.75
280,Taldan,0,RU,1610292722,87,53.6667,124.8,-13.4,5.5
281,Vanderhoof,97,CA,1610292722,95,54.0166,-124.0198,23.22,4.94
282,Bor,75,RU,1610292723,86,56.3567,44.0669,21.2,8.95
283,Hasaki,75,JP,1610292723,59,35.7333,140.8333,32.0,5.75
284,Provideniya,0,RU,1610292723,82,64.3833,-173.3,-6.84,7.74
285,Kasongo-Lunda,0,CD,1610292723,60,-6.4667,16.8167,82.72,4.21
286,Kahului,1,US,1610292655,82,20.8947,-156.47,71.01,5.75
287,Wanaka,59,NZ,1610292723,75,-44.7,169.15,49.37,3.58
288,Hirara,42,JP,1610292723,76,24.8,125.2833,62.37,24.76
289,Coyhaique,90,CL,1610292723,87,-45.5752,-72.0662,39.2,5.75
290,Mambajao,37,PH,1610292724,82,9.2504,124.7156,80.37,14.97
291,Disna,18,BY,1610292724,96,55.568,28.1971,11.66,3.74
292,Camacupa,100,AO,1610292724,89,-12.0167,17.4833,70.59,2.86
293,Vysokogornyy,95,RU,1610292724,84,50.1167,139.15,-25.02,2.73
294,Chernyshkovskiy,100,RU,1610292724,95,48.4219,42.2308,30.7,8.9
295,Isiro,86,CD,1610292626,55,2.7739,27.616,78.39,1.12
296,Ishigaki,53,JP,1610292724,76,24.3448,124.1572,62.46,25.08
297,Chegdomyn,100,RU,1610292724,85,51.1167,133.0167,-23.55,0.76
298,Bahía Blanca,1,AR,1610292552,16,-38.7196,-62.2724,84.16,5.59
299,Port Keats,100,AU,1610292725,81,-14.25,129.55,82.98,3.49
300,Eureka,77,US,1610292725,94,40.8021,-124.1637,50.0,1.01
301,Hachinohe,5,JP,1610292725,78,40.5,141.5,21.99,8.01
302,Yeppoon,75,AU,1610292725,69,-23.1333,150.7333,75.2,12.66
303,Atar,0,MR,1610292725,22,20.5169,-13.0499,71.26,23.62
304,Vila Velha,20,BR,1610292458,62,-20.3297,-40.2925,89.01,14.97
305,San Policarpo,100,PH,1610292725,84,12.1791,125.5072,79.34,21.09
306,Ikungi,100,TZ,1610292726,89,-5.1333,34.7667,61.97,5.91
307,Pingliang,0,CN,1610292726,70,35.5392,106.6861,16.57,8.57
308,Maïné Soroa,25,NE,1610292726,12,13.2114,12.0241,88.81,13.31
309,Dubbo,0,AU,1610292726,82,-32.25,148.6167,64.4,10.36
310,Muriwai Beach,81,NZ,1610292726,75,-36.8167,174.45,63.0,9.48
311,Balabac,100,PH,1610292726,80,7.9868,117.0645,81.84,24.45
312,Prince Rupert,90,CA,1610292726,93,54.3161,-130.3201,46.4,18.41
313,Petropavlovsk-Kamchatskiy,2,RU,1610292604,78,53.0452,158.6483,3.2,6.71
314,Nouadhibou,0,MR,1610292727,30,20.931,-17.0347,71.6,28.77
315,San Cristobal,75,VE,1610292727,89,7.7669,-72.225,78.8,10.36
316,Uglegorsk,100,RU,1610292727,89,49.0833,142.0333,-0.62,6.06
317,Makat,98,KZ,1610292727,93,47.6469,53.3463,32.94,4.83
318,Cosenza,40,IT,1610292727,82,39.31,16.2502,62.6,20.71
319,Atbasar,100,KZ,1610292727,92,51.8,68.3333,15.85,14.47
320,Bilāra,0,IN,1610292727,31,26.1792,73.7056,59.79,10.42
321,Puri,20,IN,1610292727,73,19.8,85.85,75.2,7.52
322,Aripuanã,56,BR,1610292727,79,-9.1667,-60.6333,85.46,3.31
323,Takhtamygda,30,RU,1610292728,86,54.1,123.5667,-16.44,1.12
324,Morro Bay,1,US,1610292728,65,35.3658,-120.8499,48.0,7.38
325,Port Elizabeth,90,ZA,1610292728,64,-33.918,25.5701,69.8,10.36
326,Broadstairs,0,GB,1610292728,90,51.3591,1.4394,37.99,3.0
327,Bandarbeyla,0,SO,1610292728,70,9.4942,50.8122,73.45,24.54
328,Tuktoyaktuk,20,CA,1610292728,84,69.4541,-133.0374,-7.6,8.05
329,San Patricio,90,US,1610292728,100,28.017,-97.5169,57.2,19.57
330,Sosnovka,100,RU,1610292728,94,56.255,51.2842,8.35,10.51
331,Khasan,0,RU,1610292729,85,42.4308,130.6434,12.94,14.92
332,Karratha,0,AU,1610292729,52,-20.7377,116.8463,90.48,9.01
333,Sitka,90,US,1610292729,76,57.0531,-135.33,44.6,21.85
334,Tessalit,55,ML,1610292729,10,20.1986,1.0114,92.84,12.15
335,Potosí,95,BO,1610292729,37,-19.5836,-65.7531,58.23,5.1
336,Abhā,20,SA,1610292729,76,18.2164,42.5053,57.2,12.66
337,Fortuna,40,US,1610292729,100,40.5982,-124.1573,48.99,4.54
338,Road Town,20,VG,1610292729,70,18.4167,-64.6167,84.2,8.05
339,Lerwick,40,GB,1610292729,75,60.1545,-1.1494,37.4,23.02
340,Talnakh,90,RU,1610292730,76,69.4865,88.3972,-19.25,0.89
341,Gwanda,0,ZW,1610292730,37,-20.9333,29.0,84.02,7.58
342,Roebourne,0,AU,1610292730,51,-20.7833,117.1333,90.21,8.9
343,Schrobenhausen,20,DE,1610292730,86,48.55,11.2667,28.99,3.44
344,Tall Kayf,0,TR,1610292730,25,37.0833,41.0667,51.8,6.91
345,Bānapur,27,IN,1610292730,72,19.7833,85.1833,73.42,3.69
346,Salalah,0,OM,1610292730,35,17.0151,54.0924,73.4,2.3
347,Gao,0,ML,1610292730,9,16.6362,1.637,94.96,9.55
348,Chui,23,UY,1610292731,62,-33.6971,-53.4616,83.44,11.52
349,Mapiripán,78,CO,1610292731,87,2.8892,-72.1256,76.6,5.59
350,Kisumu,99,KE,1610292731,80,-0.1022,34.7617,69.64,2.86
351,Umm Kaddadah,0,SD,1610292731,18,13.6017,26.6876,74.86,11.99
352,Mahon,40,ES,1610292731,71,39.8885,4.2658,53.6,8.05
353,Lagoa,98,PT,1610292731,90,39.05,-27.9833,59.85,14.0
354,Luba,20,GQ,1610292731,70,3.4568,8.5547,87.8,13.8
355,Burpengary,35,AU,1610292731,87,-27.1575,152.9576,69.01,6.53
356,Cahokia,90,US,1610292732,74,38.5709,-90.1901,28.99,6.91
357,Oodweyne,0,SO,1610292732,47,9.4092,45.064,68.36,13.38
358,Yar-Sale,40,RU,1610292732,87,66.8333,70.8333,-17.97,6.82
359,Carutapera,61,BR,1610292732,70,-1.195,-46.02,84.51,9.86
360,Muros,0,ES,1610292732,52,42.7762,-9.0603,50.0,15.01
361,Vaitape,75,PF,1610292732,72,-16.5167,-151.75,80.6,12.06
362,Forsytheganj,99,BY,1610292732,97,52.6333,29.7333,21.07,5.17
363,Barcelos,0,PT,1610292732,46,41.5388,-8.6151,51.8,9.22
364,Benguela,74,AO,1610292733,63,-12.5763,13.4055,78.55,8.93
365,Villa Sandino,40,NI,1610292733,65,12.0483,-84.9936,80.6,9.22
366,Terney,74,RU,1610292733,83,45.0503,136.6092,-0.36,9.95
367,Devils Lake,1,US,1610292482,92,48.1128,-98.8651,17.01,6.91
368,Kilindoni,100,TZ,1610292733,84,-7.9139,39.6668,79.61,16.24
369,Omsukchan,79,RU,1610292733,82,62.5333,155.8,-26.84,6.15
370,Quelimane,20,MZ,1610292733,66,-17.8786,36.8883,89.6,16.11
371,Gräfenhainichen,6,DE,1610292733,74,51.7333,12.45,34.0,1.99
372,Keti Bandar,0,PK,1610292734,27,24.1447,67.4497,65.57,11.14
373,Saint Lawrence,100,MT,1610292734,72,36.0553,14.204,66.2,12.66
374,Ambilobe,81,MG,1610292734,88,-13.2,49.05,76.75,2.19
375,Besuki,100,ID,1610292734,77,-7.7338,113.6979,79.9,1.99
376,Bestöbe,100,KZ,1610292734,94,52.4994,73.0975,12.43,14.0
377,Terrace Bay,90,CA,1610292734,93,48.7834,-87.1,21.2,4.61
378,Jaisalmer,0,IN,1610292734,34,26.9147,70.9181,56.97,7.87
379,Corinth,81,GR,1610292735,68,37.9407,22.9573,66.99,3.0
380,Port-Cartier,0,CA,1610292735,63,50.0334,-66.8654,19.99,9.22
381,Zdvinsk,100,RU,1610292735,94,54.7021,78.661,2.43,6.4
382,Bosilegrad,100,RS,1610292735,88,42.5011,22.4724,37.54,2.21
383,Malabo,20,GQ,1610292735,70,3.75,8.7833,87.8,13.8
384,Santa Ana,40,US,1610292735,53,33.7456,-117.8678,62.01,4.79
385,Natchitoches,40,US,1610292735,70,31.7668,-93.1335,39.2,6.91
386,Acolla,94,PE,1610292735,51,-11.7319,-75.5463,56.75,4.72
387,Jalu,0,LY,1610292736,29,29.0331,21.5482,73.98,9.82
388,Lira,77,UG,1610292736,36,2.235,32.9097,79.12,3.02
389,Fare,81,PF,1610292736,72,-16.7,-151.0167,80.76,12.48
390,Kurumkan,83,RU,1610292736,83,54.3,110.3,-4.13,1.81
391,Lusambo,57,CD,1610292736,62,-4.9667,23.45,82.27,2.57
392,Husavik,75,IS,1610292736,68,66.0449,-17.3389,19.4,4.61
393,Barranca,90,PE,1610292736,74,-10.75,-77.7667,73.99,10.2
394,Najrān,0,SA,1610292736,31,17.4924,44.1277,60.8,9.22
395,Vanavara,88,RU,1610292736,89,60.34,102.2797,-13.92,0.51
396,Tezu,93,IN,1610292737,55,27.9167,96.1667,64.78,1.86
397,Poum,100,NC,1610292737,83,-20.2333,164.0167,83.43,7.87
398,Edelira,100,PY,1610292737,37,-26.75,-55.2667,95.32,4.18
399,Gorontalo,4,ID,1610292737,87,0.5412,123.0595,75.29,3.31
400,Biak,1,ID,1610292737,80,-0.9131,122.8766,77.74,2.57
401,Barcelona,75,ES,1610292661,87,41.3888,2.159,48.0,5.75
402,Dicabisagan,100,PH,1610292737,80,17.0818,122.4157,70.03,9.95
403,Muhafazat Lahij,67,YE,1610292738,69,13.1667,44.5833,70.38,12.75
404,Samagaltay,100,RU,1610292738,84,50.6022,95.0047,-16.22,6.15
405,Mehamn,26,NO,1610292738,92,71.0357,27.8492,13.23,19.51
406,Liuhe,0,CN,1610292738,89,42.2401,125.7172,1.33,5.08
407,Kirkwall,75,GB,1610292738,93,58.9848,-2.9587,37.4,1.14
408,Roald,75,NO,1610292739,93,62.5833,6.1333,32.0,13.8
409,José Bonifácio,75,BR,1610292739,45,-21.0528,-49.6883,87.8,3.44
410,Mariehamn,90,AX,1610292739,93,60.0973,19.9348,33.8,16.11
411,Rāwah,0,IQ,1610292739,40,34.4816,41.9093,52.38,1.92
412,Santa Cruz del Norte,40,CU,1610292739,60,23.1539,-81.9236,69.8,8.05
413,Tamandaré,100,BR,1610292739,59,-8.7597,-35.1047,84.6,10.04
414,Tabou,13,CI,1610292739,79,4.423,-7.3528,82.11,8.86
415,Anadyr,0,RU,1610292739,68,64.75,177.4833,-32.01,6.71
416,Saurimo,63,AO,1610292740,84,-9.6608,20.3916,74.17,5.41
417,Evensk,0,RU,1610292740,79,61.95,159.2333,-1.08,13.71
418,Barra de Tecoanapa,3,MX,1610292740,61,16.5167,-98.75,80.87,1.77
419,Flin Flon,20,CA,1610292608,92,54.7682,-101.865,6.8,6.91
420,Saint-Augustin,90,CA,1610292740,85,51.226,-58.6502,24.49,15.14
421,Kishtwār,0,IN,1610292740,61,33.3167,75.7667,36.81,7.18
422,Tongchuanshi,46,CN,1610292740,66,35.0806,109.0897,22.91,11.72
423,El Rosario,1,MX,1610292740,94,24.2556,-107.1828,61.0,5.75
424,Ostrovnoy,4,RU,1610292741,91,68.0531,39.5131,3.78,12.15
425,Cairns,90,AU,1610292469,89,-16.9167,145.7667,78.8,4.61
426,Portland,100,US,1610292447,94,45.5234,-122.6762,42.01,3.22
427,Bubaque,0,GW,1610292741,54,11.2833,-15.8333,81.09,12.12
428,Zhezkazgan,100,KZ,1610292741,89,47.8043,67.7144,5.13,9.91
429,Minot,90,US,1610292741,69,48.2325,-101.2963,32.0,11.5
430,Moultonborough,38,US,1610292741,67,43.7548,-71.3967,30.0,7.0
431,Okha,100,RU,1610292741,89,53.5739,142.9478,-7.73,14.12
432,Pāsighāt,95,IN,1610292742,56,28.0667,95.3333,65.71,2.21
433,Kavieng,98,PG,1610292742,75,-2.5744,150.7967,82.11,5.48
434,Yumen,0,CN,1610292742,67,40.2833,97.2,14.07,20.67
435,Noumea,100,NC,1610292603,100,-22.2763,166.4572,73.4,5.79
436,Izobilnyy,90,RU,1610292742,100,45.3741,41.7121,28.4,2.24
437,Khovd,64,MN,1610292742,82,48.0056,91.6419,-4.95,1.28
438,Constitución,0,CL,1610292742,53,-35.3333,-72.4167,64.67,9.64
439,Klaksvík,75,FO,1610292742,69,62.2266,-6.589,30.2,9.22
440,Lagos,75,NG,1610292743,62,6.5833,3.75,91.4,6.91
441,Dunedin,99,NZ,1610292743,69,-45.8742,170.5036,54.0,1.99
442,Kendari,6,ID,1610292743,85,-3.945,122.4989,79.27,1.92
443,Huambo,100,AO,1610292743,58,-12.7761,15.7392,72.48,3.67
444,Moerai,72,PF,1610292743,76,-22.4333,-151.3333,80.65,11.48
445,Laguna,90,US,1610292743,87,38.421,-121.4238,39.99,3.85
446,Idar-Oberstein,0,DE,1610292743,80,49.7,7.3,32.0,2.3
447,Ahipara,31,NZ,1610292743,82,-35.1667,173.1667,61.36,8.46
448,Praia da Vitória,75,PT,1610292744,88,38.7333,-27.0667,59.0,16.8
449,Itarema,61,BR,1610292744,52,-2.9248,-39.9167,88.34,14.16
450,South Lake Tahoe,1,US,1610292522,93,38.9332,-119.9844,28.0,5.53
451,Codrington,81,AU,1610292744,56,-38.2667,141.9667,67.75,9.46
452,Lakes Entrance,98,AU,1610292744,61,-37.8811,147.981,66.36,4.9
453,Shīeli,0,KZ,1610292744,71,44.1667,66.75,27.61,9.24
454,Guaraciaba do Norte,43,BR,1610292744,39,-4.1669,-40.7475,87.93,5.99
455,Aykhal,100,RU,1610292744,81,66.0,111.5,-32.84,6.06
456,Teknāf,0,BD,1610292745,65,20.8624,92.3058,72.64,7.63
457,Pangody,23,RU,1610292745,85,65.85,74.4859,-28.1,7.23
458,Iquitos,40,PE,1610292745,70,-3.7481,-73.2472,86.0,3.44
459,Dufftown,75,GB,1610292745,87,57.4333,-3.1333,43.0,13.8
460,Atasū,93,KZ,1610292745,86,48.6814,71.6433,8.65,8.41
461,Palmeira das Missões,51,BR,1610292745,65,-27.8994,-53.3136,82.96,3.6
462,Black River,75,JM,1610292745,88,18.0264,-77.8487,81.0,16.11
463,Krutaya Gorka,40,RU,1610292745,78,55.3649,73.2231,5.0,6.71
464,Saint-Rémi,3,CA,1610292746,86,45.2668,-73.6159,21.0,4.61
465,Koumac,100,NC,1610292746,80,-20.5667,164.2833,81.27,5.12
466,Eyl,0,SO,1610292746,63,7.9803,49.8164,74.17,21.09
467,Manzanillo,51,CU,1610292746,69,20.3433,-77.1167,77.29,13.62
468,Marzuq,0,YE,1610292746,32,14.4,46.4667,60.85,5.88
469,Carberry,90,CA,1610292746,93,49.8689,-99.3602,24.8,23.02
470,Novikovo,100,RU,1610292746,97,51.1537,37.8879,26.65,8.23
471,Meulaboh,100,ID,1610292746,92,4.1363,96.1285,73.94,3.83
472,Lichtenfels,0,DE,1610292746,75,50.1457,11.0593,33.01,1.14
473,Doha,0,QA,1610292747,45,25.2867,51.5333,68.0,5.75
474,Mount Isa,12,AU,1610292747,65,-20.7333,139.5,78.8,5.75
475,St. George's,20,GD,1610292747,66,12.0564,-61.7485,86.0,23.02
476,Rocha,2,UY,1610292747,38,-34.4833,-54.3333,90.79,12.37
477,Ballina,3,AU,1610292747,68,-28.8667,153.5667,71.6,9.22
478,Osoyoos,100,CA,1610292747,87,49.0331,-119.4524,37.4,9.22
479,Adrar,75,MR,1610292747,25,20.5022,-10.0711,67.95,18.43
480,Havøysund,0,NO,1610292747,68,70.9963,24.6622,21.2,25.32
481,Turukhansk,0,RU,1610292747,82,65.8167,87.9833,-19.34,5.46
482,Harlingen,90,US,1610292748,100,26.1906,-97.6961,64.99,3.44
483,Mbengwi,61,CM,1610292748,25,6.0167,10.0,83.61,5.77
484,Luwuk,0,ID,1610292748,75,-0.9516,122.7875,78.42,2.89
485,Oranjemund,5,NA,1610292748,75,-28.55,16.4333,66.07,22.97
486,Katsuura,40,JP,1610292748,57,35.1333,140.3,44.6,11.5
487,Mulbāgal,93,IN,1610292748,94,13.1667,78.4,66.63,4.34
488,Aden,2,YE,1610292627,72,12.7794,45.0367,75.83,16.26
489,Vikhorevka,100,RU,1610292748,85,56.1201,101.1636,3.2,2.24
490,Haines Junction,100,CA,1610292749,85,60.7522,-137.5108,12.2,1.14
491,Balyqshy,90,KZ,1610292749,93,47.0667,51.8667,35.6,11.18
492,Sinjār,0,IQ,1610292749,51,36.3209,41.8754,48.34,1.28
493,Hofn,0,IS,1610292749,46,64.2539,-15.2082,24.8,21.85
494,Harper,33,LR,1610292749,74,4.375,-7.7169,83.07,8.5
495,Aulnoye-Aymeries,1,FR,1610292749,33,50.2014,3.8384,39.99,3.15
496,Mitsamiouli,100,KM,1610292749,79,-11.3847,43.2844,80.62,18.59
497,Ozinki,99,RU,1610292749,97,51.1786,49.6769,28.08,14.81
498,Vostok,100,RU,1610292750,90,46.4856,135.8833,-11.2,4.81
499,Santa Fe,0,AR,1610292595,33,-31.6333,-60.7,95.0,5.01
500,Alakurtti,100,RU,1610292750,86,66.9672,30.3491,-2.0,4.38
501,Khandyga,99,RU,1610292750,82,62.6667,135.6,-37.19,0.47
502,Manhattan,1,US,1610292456,55,40.7834,-73.9662,35.6,9.22
503,Zanjān,0,IR,1610292750,59,36.6736,48.4787,32.0,4.45
504,Deniliquin,100,AU,1610292750,27,-35.5333,144.9667,79.14,3.47
505,Cidreira,55,BR,1610292750,69,-30.1811,-50.2056,82.02,14.74
506,Amapá,58,BR,1610292751,87,1.0,-52.0,80.73,3.69
507,Sistranda,75,NO,1610292751,86,63.7256,8.834,32.0,12.66
508,Saldus,97,LV,1610292751,98,56.6636,22.4881,25.86,8.23
509,Sonegaon,40,IN,1610292751,68,20.65,78.6833,71.6,2.1
510,Paidha,67,UG,1610292751,51,2.4167,30.9855,71.17,1.97
511,Saint Anthony,90,US,1610292751,86,45.0205,-93.218,25.0,8.05
512,Santo Augusto,81,BR,1610292751,64,-27.8508,-53.7772,84.78,3.06
513,Ahtopol,90,BG,1610292751,100,42.1,27.95,44.6,11.5
514,Padang,75,ID,1610292751,89,-0.9492,100.3543,78.8,3.44
515,Esperance,90,AU,1610292752,82,-33.8667,121.9,60.8,17.27
516,Cartagena,40,CO,1610292748,79,10.3997,-75.5144,86.0,4.61
517,Tabas,0,IR,1610292752,23,33.5959,56.9244,44.6,6.91
518,Matara,100,LK,1610292752,81,5.9485,80.5353,77.05,2.91
519,Macamic,90,CA,1610292752,85,48.7502,-78.9996,10.4,6.91
520,Dingcheng,99,CN,1610292752,83,32.1272,115.0394,31.48,5.26
521,Lüderitz,25,NA,1610292752,58,-26.6481,15.1594,73.6,28.61
522,Tigzirt,10,DZ,1610292752,63,36.8886,4.1198,56.08,5.66
523,Tuy Hoa,77,VN,1610292752,88,13.0833,109.3,70.09,9.86
524,Kamaishi,40,JP,1610292753,92,39.2667,141.8833,23.97,8.14
525,Sorata,98,BO,1610292753,70,-15.7667,-68.6333,54.14,9.1
526,Altamont,90,US,1610292753,100,42.2068,-121.7372,28.0,3.44
527,Campoverde,20,PE,1610292753,66,-8.4753,-74.8058,86.0,3.44
528,Russell,1,US,1610292609,69,32.3502,-85.1999,37.0,4.61
529,Nipawin,1,CA,1610292753,92,53.3668,-104.0009,8.6,11.5
530,Nioro,16,GM,1610292753,15,13.35,-15.75,95.18,11.74
531,Mahanoro,12,MG,1610292753,78,-19.9,48.8,77.95,4.03
532,Plettenberg Bay,100,ZA,1610292754,78,-34.0527,23.3716,64.94,10.31
533,Coquimbo,20,CL,1610292578,68,-29.9533,-71.3436,64.4,12.66
534,Mizdah,0,LY,1610292754,18,31.4451,12.9801,77.47,15.82
535,Chifeng,100,CN,1610292754,85,42.2683,118.9636,1.54,6.24
536,Souillac,75,MU,1610292754,94,-20.5167,57.5167,78.8,10.36
537,Mount Gambier,50,AU,1610292597,53,-37.8333,140.7667,73.4,8.05
538,Nemuro,13,JP,1610292754,88,43.3236,145.575,17.64,16.6
539,Nordenham,99,DE,1610292754,93,53.5,8.4833,39.99,5.01
540,Itaituba,40,BR,1610292605,78,-4.2761,-55.9836,82.4,8.05
541,Mount Darwin,34,ZW,1610292755,82,-16.7725,31.5838,75.29,5.79
542,Dentsville,1,US,1610292755,60,34.064,-80.9582,39.99,6.91
543,Melo,19,UY,1610292755,38,-32.3667,-54.1833,91.31,7.14
544,Kurud,89,IN,1610292755,53,20.8322,81.7214,77.0,2.3
545,Ryōtsu-minato,100,JP,1610292755,95,38.0833,138.4333,31.8,12.77
546,Harrogate,75,GB,1610292653,93,53.9908,-1.5373,43.0,17.27
547,Genhe,74,CN,1610292755,86,50.7833,121.5167,-18.49,1.86
548,Vila do Maio,75,CV,1610292755,57,15.1333,-23.2167,75.2,28.77
549,Tsimmerbude,90,RU,1610292755,93,54.675,20.1347,32.0,4.47
550,Thunder Bay,90,CA,1610292730,92,48.4001,-89.3168,16.0,9.22
551,Belmonte,20,BR,1610292756,74,-15.8631,-38.8828,84.2,11.5
552,Chumikan,98,RU,1610292756,84,54.7183,135.315,-15.32,14.99
553,Vanimo,100,PG,1610292756,80,-2.6741,141.3028,79.0,1.32
554,Ixtapa,40,MX,1610292756,88,20.7,-105.2,69.8,3.44
555,Boralday,40,KZ,1610292756,72,43.3578,76.8594,10.4,4.47
556,Chivay,89,PE,1610292756,52,-15.6383,-71.6011,54.28,6.06
557,Safaga,0,EG,1610292756,49,26.7292,33.9365,73.4,17.27
558,General Roca,0,AR,1610292757,13,-39.0333,-67.5833,80.6,21.85
559,Menomonie,90,US,1610292496,100,44.8755,-91.9193,21.0,4.61
560,Sisophon,0,KH,1610292757,59,13.5859,102.9737,71.98,7.56
561,Bājitpur,40,BD,1610292757,69,24.2167,90.95,75.2,2.91
562,Fairbanks,20,US,1610292602,79,64.8378,-147.7164,14.0,6.91
563,Saint-Leu,40,RE,1610292757,83,-21.15,55.2833,80.6,21.85
564,Batagay-Alyta,91,RU,1610292757,83,67.8006,130.4114,-28.84,1.43
565,Nyurba,97,RU,1610292757,84,63.2842,118.3319,-29.67,3.87
566,Øksfjord,0,NO,1610292758,100,70.2396,22.3479,26.6,19.57
567,Vila Franca do Campo,40,PT,1610292758,67,37.7167,-25.4333,57.2,5.75
568,Pringsewu,93,ID,1610292758,91,-5.3582,104.9744,74.98,2.1
569,Tomé,75,CL,1610292709,68,-36.6167,-72.95,64.4,11.5
570,Beringovskiy,50,RU,1610292758,85,63.05,179.3167,-19.21,12.53
571,Egvekinot,5,RU,1610292758,85,66.3167,-179.1667,-20.13,11.05
572,Ginda,0,IN,1610292758,42,30.6945,78.4932,45.59,7.36
573,Sept-Îles,0,CA,1610292758,63,50.2001,-66.3821,19.99,9.22
574,Hay River,100,CA,1610292759,79,60.8156,-115.7999,15.8,5.75
575,Pyapon,34,MM,1610292759,79,16.2833,95.6833,75.54,6.87
576,Baghdad,0,IQ,1610292470,44,33.3406,44.4009,57.2,4.61
577,Sorong,100,ID,1610292759,82,-0.8833,131.25,81.12,8.57
578,Loreto,0,MX,1610292759,57,22.2667,-101.9667,54.3,15.1
579,Seydi,16,TM,1610292759,73,39.4816,62.9137,35.26,12.37
580,Mendeleyevsk,90,RU,1610292759,85,55.9082,52.2905,14.0,17.9
581,Teya,100,RU,1610292759,86,60.3778,92.6267,-12.87,1.14
582,Champerico,0,GT,1610292760,61,14.3,-91.9167,80.6,3.27
583,Krasnystaw,90,PL,1610292760,100,50.9846,23.1742,32.0,5.75
584,Burnie,15,AU,1610292760,96,-41.0667,145.9167,57.99,3.0
585,Kushmurun,100,KZ,1610292760,96,52.4503,64.6311,15.69,17.09
586,Pirenópolis,40,BR,1610292760,73,-15.8525,-48.9592,77.0,4.61
587,Marsabit,18,KE,1610292760,49,2.3284,37.9899,71.74,8.7
588,Long Beach,1,US,1610292690,43,33.767,-118.1892,53.01,4.61
589,Ashquelon,0,IL,1610292760,26,31.6693,34.5715,66.99,9.24
590,Togur,83,RU,1610292760,91,58.3631,82.8265,-9.56,6.4
591,Skibbereen,75,IE,1610292761,93,51.55,-9.2667,42.8,8.05
592,Acapulco de Juárez,40,MX,1610292761,73,16.8634,-99.8901,77.0,9.22
